City_ID,City,Lat,Lng,Max Temp,Humidity,Cloudiness,Wind Speed,Country,Date
0,dudinka,69.4058,86.1778,238.53,96,16,2.68,RU,1701668275
1,muang phon-hong,18.4928,102.4172,303.35,54,38,0.68,LA,1701668275
2,renqiu,38.6989,116.0936,282.96,23,24,0.91,CN,1701668276
3,mili,6.0815,171.735,301.3,82,83,8.77,MH,1701668276
4,manggar,-2.8833,108.2667,303.11,65,100,1.01,ID,1701668276
5,waitangi,-43.9535,-176.5597,285.83,75,100,0.89,NZ,1701668276
6,kitimat,54.0524,-128.6534,278.53,64,100,2.68,CA,1701668276
7,rundu,-17.9333,19.7667,299.78,45,78,2.88,NA,1701668277
8,broken hill,-31.95,141.4333,308.18,11,0,2.66,AU,1701668277
9,les cayes,18.2,-73.75,297.04,77,6,1.66,HT,1701668277
10,bilibino,68.0546,166.4372,249.72,100,100,1.15,RU,1701668277
11,ushuaia,-54.8,-68.3,280.96,76,40,12.35,AR,1701668277
12,sao jose da coroa grande,-8.8978,-35.1478,298.39,86,16,3.54,BR,1701668278
13,puerto ayora,-0.7393,-90.3518,296.79,96,75,1.34,EC,1701668278
14,manavalakurichi,8.1333,77.3,303.0,70,60,5.57,IN,1701668278
15,iqaluit,63.7506,-68.5145,260.0,78,100,6.17,CA,1701668278
16,punta arenas,-53.15,-70.9167,282.16,81,40,7.72,CL,1701668278
17,hithadhoo,-0.6,73.0833,301.31,76,100,3.12,MV,1701668279
18,tadine,-21.55,167.8833,298.12,69,53,2.75,NC,1701668279
19,lompoc,34.6391,-120.4579,289.23,86,0,6.69,US,1701668279
20,georgetown,5.4112,100.3354,305.11,66,20,3.6,MY,1701668145
21,wailua homesteads,22.0669,-159.378,298.39,88,75,3.09,US,1701668004
22,albany,42.6001,-73.9662,278.6,93,99,0.45,US,1701668280
23,palmer,42.1584,-72.3287,278.23,82,100,3.6,US,1701668280
24,margaret river,-33.95,115.0667,292.09,62,100,4.87,AU,1701668280
25,puerto aysen,-45.4,-72.7,280.0,99,99,1.29,CL,1701668280
26,ohara,35.25,140.3833,285.47,43,7,1.75,JP,1701668280
27,hamilton,39.1834,-84.5333,278.15,81,0,0.89,US,1701668110
28,mwene-ditu,-7.0,23.45,291.23,98,100,1.24,CD,1701668281
29,port-aux-francais,-49.35,70.2167,277.03,72,16,14.92,TF,1701668281
30,valdivia,-39.8142,-73.2459,283.2,81,0,1.62,CL,1701668269
31,rongelap,11.1635,166.8941,300.98,73,89,8.44,MH,1701668281
32,nalut,30.3333,10.85,282.32,93,4,4.57,LY,1701668281
33,saldanha,-33.0117,17.9442,289.18,68,29,3.86,ZA,1701668282
34,adamstown,-25.066,-130.1015,295.46,84,90,5.38,PN,1701668282
35,metlili chaamba,32.2667,3.6333,278.67,65,0,1.54,DZ,1701668282
36,chonchi,-42.6128,-73.8092,280.71,98,17,1.68,CL,1701668282
37,bhongaon,27.25,79.1833,291.39,82,100,1.07,IN,1701668282
38,santo antonio,-6.3106,-35.4789,296.91,94,87,1.84,BR,1701668283
39,bethel,41.3712,-73.414,280.2,89,100,0.0,US,1701668035
40,vilyuchinsk,52.9306,158.4028,268.3,80,41,3.18,RU,1701668283
41,grytviken,-54.2811,-36.5092,274.01,79,9,3.65,GS,1701668284
42,hovd,48.0056,91.6419,274.47,50,64,6.34,MN,1701668284
43,lorengau,-2.0226,147.2712,302.76,67,68,1.49,PG,1701668284
44,predeal,45.5,25.5667,267.98,81,100,1.49,RO,1701668284
45,cabo san lucas,22.8909,-109.9124,295.66,70,0,2.23,MX,1701668094
46,thompson,55.7435,-97.8558,267.24,93,100,1.54,CA,1701668285
47,vung tau,10.346,107.0843,301.36,71,77,2.66,VN,1701668285
48,rio grande,-32.035,-52.0986,292.01,72,100,8.82,BR,1701668285
49,new norfolk,-42.7826,147.0587,296.32,30,100,1.47,AU,1701668285
50,nova sintra,14.8667,-24.7167,295.61,77,95,6.24,CV,1701668286
51,tarauaca,-8.1614,-70.7656,295.5,100,82,1.07,BR,1701668286
52,fort mcmurray,56.7268,-111.381,263.92,92,0,3.6,CA,1701668286
53,east london,-33.0153,27.9116,290.67,88,100,1.54,ZA,1701668029
54,ribeira grande,38.5167,-28.7,288.02,70,22,0.89,PT,1701668287
55,st. john's,47.5649,-52.7093,273.13,83,75,1.03,CA,1701668287
56,mugia,43.1041,-9.2179,286.57,76,31,10.87,ES,1701668287
57,petropavlovsk-kamchatsky,53.0452,158.6483,267.48,76,75,4.0,RU,1701668287
58,muisne,0.6,-80.0333,298.18,85,96,2.72,EC,1701668287
59,doganhisar,38.1463,31.6765,280.48,89,40,2.62,TR,1701668288
60,college,64.8569,-147.8028,252.84,78,20,0.0,US,1701668288
61,laguna,38.421,-121.4238,286.14,86,0,0.0,US,1701668288
62,panama city beach,30.1766,-85.8055,291.16,98,0,1.54,US,1701668288
63,gravina in puglia,40.8197,16.4228,279.23,81,56,2.28,IT,1701668289
64,gulf shores,30.246,-87.7008,289.45,81,0,2.06,US,1701668289
65,port lincoln,-34.7333,135.8667,295.1,62,11,6.59,AU,1701668289
66,invercargill,-46.4,168.35,284.72,52,9,3.53,NZ,1701668144
67,puerto natales,-51.7236,-72.4875,279.07,90,88,3.2,CL,1701668289
68,pangody,65.85,74.4859,242.77,99,23,3.54,RU,1701668290
69,crane,31.3974,-102.3501,284.28,35,0,3.73,US,1701668290
70,hermanus,-34.4187,19.2345,291.59,66,68,4.11,ZA,1701668290
71,glace bay,46.1969,-59.957,275.46,84,75,3.09,CA,1701668290
72,tangalle,6.024,80.7911,298.24,87,96,4.25,LK,1701668291
73,aasiaat,68.7098,-52.8699,262.97,81,100,1.86,GL,1701668291
74,papatowai,-46.5619,169.4708,284.15,57,19,5.32,NZ,1701668291
75,shizuishan,39.2333,106.7694,280.55,21,26,1.91,CN,1701668291
76,kone,-21.0595,164.8658,300.55,69,84,2.23,NC,1701668292
77,riyadh,24.6877,46.7219,289.23,31,100,2.01,SA,1701668122
78,kolonia town,6.964,158.206,304.15,70,75,3.6,FM,1701668292
79,blackmans bay,-43.0167,147.3167,295.66,47,100,3.3,AU,1701668292
80,farmington,36.7281,-108.2187,278.26,73,0,1.54,US,1701668292
81,benjamin constant,-4.3831,-70.0311,298.22,99,94,0.55,BR,1701668293
82,mishkovo-pohorilove,46.9995,32.118,272.22,73,92,3.8,UA,1701668293
83,pisco,-13.7,-76.2167,292.18,82,0,3.09,PE,1701668073
84,tolanaro,-25.0319,46.9987,297.19,78,40,5.14,MG,1701668293
85,ketchikan,55.3422,-131.6461,281.41,81,100,3.09,US,1701668131
86,tuyen quang,21.8233,105.2181,292.48,84,100,0.53,VN,1701668294
87,nemuro,43.3236,145.575,277.73,67,67,4.71,JP,1701668294
88,taoudenni,22.6783,-3.9836,294.14,42,0,3.74,ML,1701668294
89,belomorsk,64.5232,34.7668,257.22,98,72,1.76,RU,1701668295
90,udachny,66.4167,112.4,235.62,73,92,1.62,RU,1701668295
91,magherafelt,54.7536,-6.6066,277.7,88,100,3.79,GB,1701668295
92,anadyr,64.75,177.4833,252.59,83,20,4.0,RU,1701668295
93,olonkinbyen,70.9221,-8.7187,273.1,81,53,5.67,SJ,1701668296
94,onega,63.9061,38.1404,254.85,100,95,1.15,RU,1701668296
95,ghanzi,-21.5667,21.7833,301.37,16,80,7.36,BW,1701668296
96,chibougamau,49.9168,-74.3659,260.94,79,100,5.66,CA,1701668216
97,santa cruz,-17.8,-63.1667,296.85,88,40,2.57,BO,1701668203
98,fale old settlement,-9.3852,-171.2468,302.48,75,95,7.16,TK,1701668297
99,quellon,-43.1167,-73.6167,280.89,93,11,3.86,CL,1701668297
100,issia,6.4922,-6.5856,294.94,98,32,1.1,CI,1701668298
101,yellowknife,62.456,-114.3525,254.57,84,100,4.63,CA,1701668119
102,carmelo,-33.9892,-58.2856,287.41,51,98,4.29,UY,1701668030
103,iskateley,67.6803,53.1512,257.47,94,96,5.26,RU,1701668298
104,belle fourche,44.6714,-103.8522,275.96,39,49,3.15,US,1701668001
105,edinburgh of the seven seas,-37.0676,-12.3116,287.77,86,1,6.03,SH,1701668299
106,alofi,-19.0595,-169.9187,299.2,76,3,6.64,NU,1701668299
107,qarazhal,48.0078,70.7903,271.23,61,76,1.53,KZ,1701668299
108,deschutes river woods,43.9915,-121.3584,282.48,82,20,8.75,US,1701668300
109,port mathurin,-19.6833,63.4167,299.07,77,32,7.04,MU,1701668300
110,inhambane,-23.865,35.3833,300.42,50,42,3.31,MZ,1701668300
111,gorontalo,0.5412,123.0595,303.25,72,35,1.93,ID,1701668300
112,selfoss,63.9331,-20.9971,272.06,57,100,4.17,IS,1701668301
113,arraial do cabo,-22.9661,-42.0278,296.9,93,99,8.56,BR,1701668301
114,afaahiti,-17.75,-149.2833,301.08,82,100,10.96,PF,1701668301
115,roswell,34.0232,-84.3616,283.97,89,0,2.06,US,1701668301
116,avarua,-21.2078,-159.775,297.18,78,20,4.63,CK,1701668302
117,narasapur,16.45,81.6667,296.39,94,100,8.93,IN,1701668302
118,bat khela,34.6167,71.9714,291.96,16,0,0.53,PK,1701668302
119,kalmunai,7.4167,81.8167,303.03,71,65,3.52,LK,1701668302
120,ilulissat,69.2167,-51.1,267.16,73,75,1.03,GL,1701668302
121,inari,68.906,27.0288,265.26,97,100,1.47,FI,1701668303
122,whitehorse,60.7161,-135.0538,260.94,92,100,2.06,CA,1701668200
123,west island,-12.1568,96.8225,302.14,65,53,5.66,CC,1701668303
124,verkhnevilyuysk,63.4453,120.3167,228.92,100,76,0.81,RU,1701668303
125,vilyuysk,63.7553,121.6247,229.82,99,83,0.45,RU,1701668303
126,bikenibeu village,1.3673,173.1241,304.13,70,20,6.17,KI,1701668304
127,carnarvon,-24.8667,113.6333,301.01,57,1,9.06,AU,1701668304
128,mek'ele,13.4967,39.4753,290.62,44,27,4.01,ET,1701668304
129,nagqu,31.5,92.0,269.21,19,100,1.78,CN,1701668304
130,sisimiut,66.9395,-53.6735,267.34,77,100,2.65,GL,1701668305
131,keflavik,64.0049,-22.5624,274.39,75,75,5.14,IS,1701668305
132,stanley,54.868,-1.6985,277.47,95,75,1.54,GB,1701668305
133,anaconda,46.1285,-112.9423,274.7,83,66,8.81,US,1701668305
134,shingu,33.7333,135.9833,285.93,47,0,1.5,JP,1701668305
135,twon-brass,4.3151,6.2418,300.13,81,31,3.18,NG,1701668306
136,miles city,46.4083,-105.8406,272.69,59,100,4.63,US,1701668302
137,jamestown,42.097,-79.2353,278.92,97,100,6.69,US,1701668306
138,bredasdorp,-34.5322,20.0403,292.64,53,48,4.43,ZA,1701668306
139,sao joao da barra,-21.6403,-41.0511,296.81,90,25,6.85,BR,1701668306
140,saipan,15.1355,145.701,303.54,66,40,7.2,MP,1701668289
141,isafjordur,66.0755,-23.124,273.88,83,98,3.87,IS,1701668307
142,saint-philippe,-21.3585,55.7679,299.32,64,30,1.77,RE,1701668307
143,hasaki,35.7333,140.8333,288.31,40,2,1.59,JP,1701668307
144,zalari,53.5584,102.5065,268.56,95,100,2.55,RU,1701668307
145,fiambala,-27.6871,-67.6149,287.64,66,96,1.89,AR,1701668308
146,papayal,-4.0761,-80.7361,297.68,67,100,1.35,PE,1701668308
147,okhotsk,59.3833,143.3,241.7,84,38,6.48,RU,1701668019
148,buurhakaba,2.8026,44.0781,301.2,55,39,9.15,SO,1701668308
149,port elizabeth,-33.918,25.5701,292.31,75,0,6.17,ZA,1701668309
150,kerema,-7.9631,145.7785,302.37,73,88,3.29,PG,1701668309
151,bafoulabe,13.8065,-10.8321,297.86,21,99,1.22,ML,1701668309
152,mount isa,-20.7333,139.5,314.02,13,0,5.14,AU,1701668309
153,cabedelo,-6.9811,-34.8339,299.52,83,98,3.77,BR,1701668309
154,lakatoro,-16.0999,167.4164,301.25,77,64,5.81,VU,1701668310
155,uturoa,-16.7333,-151.4333,300.39,80,48,10.1,PF,1701668310
156,port saint john's,-31.6229,29.5448,294.71,84,54,1.1,ZA,1701668310
157,zaragoza,41.6561,-0.8773,285.64,73,100,3.6,ES,1701668310
158,bontang,0.1333,117.5,302.15,72,92,2.64,ID,1701668310
159,tazacorte,28.629,-17.9293,290.69,77,0,3.6,ES,1701668311
160,port douglas,-16.4833,145.4667,301.87,61,74,3.11,AU,1701668311
161,kingston,17.997,-76.7936,299.68,89,20,4.63,JM,1701668086
162,ocos,14.5094,-92.1933,299.38,80,6,1.83,GT,1701668311
163,matamey,13.4231,8.4749,293.6,18,37,4.11,NE,1701668311
164,sigaboy,6.6541,126.0727,301.56,74,77,0.51,PH,1701668312
165,thunder bay,48.4001,-89.3168,269.14,86,100,2.06,CA,1701668016
166,karratha,-20.7377,116.8463,303.22,56,8,6.61,AU,1701668312
167,chornomors'k,46.305,30.6548,274.09,69,99,5.74,UA,1701668312
168,el alto,-4.2714,-81.2147,294.3,78,68,5.53,PE,1701668312
169,lihue,21.9789,-159.3672,298.73,85,75,3.09,US,1701668313
170,enewetak,11.3474,162.3373,301.2,74,98,8.97,MH,1701668313
171,jiuquan,39.7432,98.5174,279.74,18,0,0.5,CN,1701668313
172,rawson,-43.3002,-65.1023,284.42,61,0,9.77,AR,1701668313
173,tiksi,71.6872,128.8694,241.07,99,99,3.3,RU,1701668314
174,hawaiian paradise park,19.5933,-154.9731,295.95,98,100,2.57,US,1701668231
175,boca chica,18.4537,-69.6111,294.21,100,20,2.06,DO,1701668314
176,tarawa,1.419,172.984,304.2,70,20,6.17,KI,1701668314
177,queenstown,-31.8976,26.8753,292.48,68,82,1.39,ZA,1701668314
178,banda aceh,5.5577,95.3222,301.51,73,93,1.24,ID,1701668315
179,orange,33.7,-117.7675,290.67,66,0,1.54,US,1701668179
180,mahajanga,-15.7167,46.3167,299.16,78,40,5.14,MG,1701668315
181,atafu village,-8.5421,-172.5159,302.57,76,78,7.04,TK,1701668315
182,tamanrasset,22.785,5.5228,287.1,14,0,5.14,DZ,1701668315
183,kisangani,0.5167,25.2,294.61,99,100,1.39,CD,1701668316
184,belyy yar,53.6039,91.3903,274.09,55,0,9.0,RU,1701668316
185,kasongo,-4.45,26.6667,292.79,99,100,1.06,CD,1701668316
186,nar'yan-mar,67.6713,53.087,257.63,95,96,5.29,RU,1701668316
187,natagaima,3.6206,-75.0941,296.52,76,84,0.89,CO,1701668316
188,remire-montjoly,4.9167,-52.2667,298.17,94,40,0.0,GF,1701668317
189,nadi,-17.8,177.4167,303.15,70,75,5.66,FJ,1701668317
190,lebu,-37.6167,-73.65,284.04,79,0,8.76,CL,1701668317
191,aykhal,66.0,111.5,234.89,99,64,2.49,RU,1701668317
192,vegreville,53.5001,-112.0518,272.54,80,100,1.54,CA,1701668176
193,lagos,6.5833,3.75,299.33,96,48,0.98,NG,1701667720
194,minas de marcona,-15.2119,-75.1103,286.54,88,78,4.92,PE,1701668318
195,fort st. john,56.2499,-120.8529,271.09,80,20,4.63,CA,1701668115
196,olinda,-8.0089,-34.8553,299.0,100,75,1.03,BR,1701668318
197,hualien city,23.9769,121.6044,296.97,88,84,2.39,TW,1701668318
198,alesund,62.4723,6.1549,273.01,76,75,4.63,NO,1701668319
199,hammerfest,70.6634,23.6821,272.4,86,100,5.14,NO,1701668319
200,arauquita,7.0292,-71.4281,297.29,71,80,1.71,CO,1701668319
201,ola,59.5833,151.2833,241.56,89,58,4.75,RU,1701668319
202,kavaratti,10.5669,72.642,302.48,71,64,4.97,IN,1701668319
203,touros,-5.1989,-35.4608,299.16,80,100,5.14,BR,1701668320
204,kamaishi,39.2667,141.8833,281.45,63,13,0.74,JP,1701668211
205,taunggyi,20.7833,97.0333,297.47,55,58,0.98,MM,1701668320
206,el granada,37.5027,-122.4694,287.79,89,100,0.0,US,1701668320
207,ambodifotatra,-16.9833,49.85,297.91,77,100,7.13,MG,1701668320
208,ararat,39.8317,44.7049,272.34,36,96,0.76,AM,1701668321
209,tazovsky,67.4667,78.7,242.46,94,17,4.04,RU,1701668321
210,urangan,-25.3,152.9,300.56,71,21,3.93,AU,1701668321
211,puerto deseado,-47.7503,-65.8938,285.27,47,88,3.95,AR,1701668321
212,tuma,55.148,40.5537,264.73,93,99,4.86,RU,1701668321
213,labytnangi,66.6572,66.4183,240.55,98,87,1.04,RU,1701668322
214,utrik,11.2278,169.8474,300.52,73,99,9.38,MH,1701668322
215,omdurman,15.6445,32.4777,299.87,30,4,5.59,SD,1701668322
216,wiwili,13.6268,-85.8254,294.88,97,50,1.83,NI,1701668322
217,cidade velha,14.9167,-23.6167,296.41,83,20,5.66,CV,1701668322
218,warm mineral springs,27.0598,-82.2601,297.03,99,43,2.84,US,1701668323
219,badger,64.8,-147.5333,252.79,80,40,0.0,US,1701668323
220,fortuna,40.5982,-124.1573,288.52,91,100,6.69,US,1701668323
221,ekibastuz,51.6667,75.3667,264.53,61,100,7.6,KZ,1701668323
222,almunecar,36.7339,-3.6907,287.02,60,97,3.0,ES,1701668323
223,nobres,-14.7203,-56.3275,296.5,86,100,1.51,BR,1701668323
224,qaqortoq,60.7167,-46.0333,270.34,72,100,4.33,GL,1701668324
225,kiunga,-6.1219,141.2906,299.24,84,97,1.08,PG,1701668324
226,gadzhiyevo,69.2551,33.3362,266.43,96,100,2.21,RU,1701668324
227,roja,57.5,22.8167,271.31,77,100,4.15,LV,1701668324
228,belgrano,-34.5627,-58.4583,291.06,65,75,6.17,AR,1701668325
229,pacific grove,36.6177,-121.9166,287.4,85,0,0.45,US,1701668325
230,drayton valley,53.2168,-114.9854,267.45,79,100,3.18,CA,1701668325
231,kailua-kona,19.6406,-155.9956,299.13,86,100,1.7,US,1701668278
232,kapa'a,22.0752,-159.319,299.14,85,75,3.09,US,1701668325
233,shortandy,51.7006,70.9994,262.44,82,98,4.18,KZ,1701668326
234,daru,-9.0763,143.2092,301.37,79,100,4.68,PG,1701668326
235,brookings,44.3114,-96.7984,271.03,90,100,2.57,US,1701668209
236,avdiyivka,48.1399,37.7426,272.38,71,100,4.97,UA,1701668326
237,vadso,70.0744,29.7487,268.24,93,75,4.63,NO,1701668326
238,belo sur tsiribihina,-19.7,44.55,305.6,46,74,1.32,MG,1701668326
239,horta,38.5333,-28.6333,287.6,70,38,0.89,PT,1701668327
240,pemangkat,1.1667,108.9667,301.46,73,98,2.93,ID,1701668327
241,as sulayyil,20.4607,45.5779,290.29,33,6,3.81,SA,1701668327
242,shiprock,36.7855,-108.687,276.34,56,15,1.34,US,1701668327
243,commentry,46.2921,2.7416,277.97,83,100,5.74,FR,1701668327
244,alpena,45.0617,-83.4327,273.29,96,100,2.06,US,1701668328
245,beloyarskiy,63.7119,66.6722,239.26,100,50,0.89,RU,1701668328
246,yuza,39.0,139.9167,280.18,71,89,3.02,JP,1701668328
247,toropets,56.4978,31.6353,256.78,99,100,1.39,RU,1701668328
248,vila do maio,15.1333,-23.2167,296.59,79,86,7.76,CV,1701668328
249,isla mujeres,21.2311,-86.731,299.18,84,57,4.44,MX,1701668329
250,sumy,50.9216,34.8003,264.02,93,94,4.12,UA,1701668329
251,pekanbaru,0.5333,101.45,299.33,89,75,2.57,ID,1701668329
252,villa gesell,-37.2639,-56.973,284.85,59,7,3.01,AR,1701668329
253,kedougou,12.5579,-12.1743,296.69,25,100,0.71,SN,1701668329
254,saint-pierre,-21.3393,55.4781,300.13,57,5,2.57,RE,1701668329
255,chai badan,15.2,101.1333,302.69,61,61,5.02,TH,1701668330
256,kampong dungun,3.2167,101.3167,305.96,78,74,2.26,MY,1701668330
257,puerto san jose,13.9256,-90.8244,298.49,81,2,2.2,GT,1701668330
258,puerto baquerizo moreno,-0.9,-89.6,296.44,83,74,3.86,EC,1701668330
259,chinde,26.8418,88.0763,292.36,45,34,2.89,NP,1701668330
260,murghob,38.1702,73.9667,264.31,50,18,1.22,TJ,1701668331
261,oppdal,62.5943,9.6912,260.14,74,33,2.56,NO,1701668331
262,kirakira,-10.4544,161.9205,300.65,83,96,4.45,SB,1701668331
263,ust-nera,64.5667,143.2,234.2,98,100,2.04,RU,1701668331
264,kodiak,57.79,-152.4072,275.88,75,100,5.14,US,1701668331
265,airuk,7.2772,168.8203,300.83,82,89,8.71,MH,1701668332
266,champerico,14.3,-91.9167,299.6,78,7,1.82,GT,1701668332
267,alaghsas,17.0187,8.0168,291.09,20,73,3.6,NE,1701668332
268,ta'izz,13.5,44.0,291.31,49,3,4.06,YE,1701668332
269,malpica,43.3228,-8.8105,284.94,91,58,8.66,ES,1701668332
270,kachug,53.9606,105.8817,266.15,83,100,1.41,RU,1701668333
271,quang ngai,15.1167,108.8,300.27,82,63,3.23,VN,1701668333
272,nuuk,64.1835,-51.7216,272.49,64,100,3.09,GL,1701668333
273,gantang,26.92,119.6333,287.82,95,100,0.48,CN,1701668333
274,vernon,50.2581,-119.2691,274.35,89,80,3.6,CA,1701668333
275,burg auf fehmarn,54.4333,11.2,272.62,78,92,7.08,DE,1701668334
276,kharp,66.8014,65.8081,244.25,99,83,1.37,RU,1701668334
277,susuman,62.7833,148.1667,240.17,99,100,0.86,RU,1701668334
278,antonio enes,-16.2325,39.9086,301.56,56,0,1.91,MZ,1701668334
279,luderitz,-26.6481,15.1594,292.35,55,1,9.17,NA,1701668334
280,santa sylvina,-27.8326,-61.1375,291.51,97,100,5.18,AR,1701668335
281,gomez farias,23.05,-99.15,290.58,85,100,1.7,MX,1701668335
282,zuwarah,32.9312,12.082,289.46,58,41,5.98,LY,1701668335
283,conception bay south,47.4999,-52.9981,273.0,86,97,1.38,CA,1701668335
284,loango,-4.6719,11.8312,297.96,94,75,2.06,CG,1701668336
285,qamdo,31.1667,97.2333,272.47,34,94,1.29,CN,1701668336
286,tura,25.5198,90.2201,300.24,36,77,1.05,IN,1701668336
287,magadan,59.5667,150.8,241.22,92,64,4.39,RU,1701668336
288,kill devil hills,36.0307,-75.676,291.16,95,0,0.0,US,1701668336
289,longyearbyen,78.2186,15.6401,266.06,58,75,7.72,SJ,1701668337
290,balkanabat,39.5108,54.3671,291.83,25,0,1.54,TM,1701668337
291,san patricio,28.017,-97.5169,290.07,43,100,2.75,US,1701668337
292,praia,14.9215,-23.5087,296.45,83,20,5.66,CV,1701668337
293,alnashi,56.1874,52.4792,269.22,97,100,4.39,RU,1701668337
294,sur,22.5667,59.5289,299.96,51,28,7.01,OM,1701668338
295,enriquillo,17.9,-71.2333,297.78,87,49,4.02,DO,1701668338
296,la passe,45.5549,-0.8967,279.28,80,98,11.95,FR,1701668338
297,kilindoni,-7.9139,39.6668,300.64,73,100,1.7,TZ,1701668338
298,bismarck,46.8083,-100.7837,269.62,79,0,4.12,US,1701668338
299,kruisfontein,-34.0033,24.7314,290.86,59,41,3.58,ZA,1701668338
300,tuba city,36.135,-111.2399,277.25,70,100,0.89,US,1701668339
301,el abiodh sidi cheikh,32.893,0.5484,277.85,36,38,2.52,DZ,1701668339
302,fort bragg,35.139,-79.006,290.06,82,0,1.54,US,1701668339
303,bilgoraj,50.5411,22.722,263.09,96,68,3.48,PL,1701668339
304,atlantic city,39.3643,-74.4229,284.25,94,0,3.6,US,1701668163
305,belmonte,-15.8631,-38.8828,297.13,87,7,3.15,BR,1701668339
306,zhob,31.3411,69.4481,287.05,29,0,1.52,PK,1701668340
307,alice springs,-23.7,133.8833,310.9,13,0,5.14,AU,1701668340
308,swainsboro,32.5974,-82.3337,290.09,94,0,0.0,US,1701668340
309,taksimo,56.3444,114.8794,259.3,91,100,1.09,RU,1701668340
310,mananjary,-21.2167,48.3333,299.05,57,33,1.58,MG,1701668340
311,manicore,-5.8092,-61.3003,296.0,98,100,0.2,BR,1701668341
312,nova vicosa,-17.8919,-39.3719,297.48,88,4,3.9,BR,1701668341
313,baukau,51.5526,7.2042,275.67,68,100,1.79,DE,1701668341
314,mount darwin,-16.7725,31.5838,297.16,43,9,2.77,ZW,1701668341
315,ballina,-28.8667,153.5667,298.58,76,55,5.33,AU,1701668342
316,qingdao,36.0986,120.3719,285.93,26,0,5.0,CN,1701668342
317,callao,-12.0667,-77.15,294.1,77,75,3.6,PE,1701668336
318,barra de santo antonio,-9.4047,-35.5072,298.75,88,13,4.43,BR,1701668342
319,ugoofaaru,5.6667,73.0,301.74,74,11,3.89,MV,1701668343
320,praia da vitoria,38.7333,-27.0667,286.9,82,75,2.36,PT,1701668343
321,colonia,50.9333,6.95,274.78,69,0,5.14,DE,1701668343
322,nanga eboko,4.6833,12.3667,294.09,96,87,0.69,CM,1701668343
323,qidu,26.7653,119.5472,288.0,95,100,0.57,CN,1701668344
324,mina clavero,-31.721,-65.0062,286.11,53,100,1.98,AR,1701668344
325,brokopondo,4.75,-55.1667,297.45,93,21,3.77,SR,1701668344
326,smithers,54.7804,-127.1743,275.33,87,40,4.12,CA,1701668344
327,fisterra,42.9049,-9.2629,286.49,75,23,11.05,ES,1701668345
328,oamaru,-45.0784,170.9801,285.58,70,87,3.11,NZ,1701668345
329,contamana,-7.3333,-75.0167,297.18,82,29,1.28,PE,1701668346
330,koppies,-27.2418,27.5742,298.56,31,73,3.33,ZA,1701668346
331,kosciusko,33.0576,-89.5876,279.94,79,99,2.39,US,1701668254
332,inarajan village,13.2736,144.7484,304.69,84,60,8.53,GU,1701668346
333,warmbad,-28.45,18.7333,294.84,30,0,4.87,NA,1701668347
334,balqash,46.8481,74.995,273.48,64,0,6.0,KZ,1701668347
335,richards bay,-28.783,32.0377,296.18,84,74,2.22,ZA,1701668347
336,paita,-5.0892,-81.1144,293.8,83,45,4.82,PE,1701668347
337,zhumysker,49.3333,49.4,280.97,95,96,4.11,KZ,1701668348
338,port alfred,-33.5906,26.891,291.03,87,100,0.89,ZA,1701668348
339,lazaro cardenas,17.9583,-102.2,297.64,84,100,1.87,MX,1701668348
340,camana,-16.6228,-72.7111,291.87,82,61,2.5,PE,1701668348
341,sao vicente,-23.9631,-46.3919,299.25,26,91,0.45,BR,1701668349
342,urengoy,65.9667,78.3667,240.89,95,16,3.72,RU,1701668349
343,ancud,-41.8697,-73.8203,279.38,89,1,2.32,CL,1701668349
344,tual,-5.6667,132.75,302.0,72,74,2.43,ID,1701668349
345,kayangel,8.0823,134.7173,300.3,85,100,6.49,PW,1701668350
346,i-n-salah,27.1935,2.4607,285.56,34,0,5.7,DZ,1701668350
347,lluta,-16.0147,-72.0142,285.64,32,26,0.52,PE,1701668350
348,gbarnga,6.9956,-9.4722,294.38,98,15,0.86,LR,1701668350
349,rockland,41.1668,-74.0496,280.73,92,99,1.88,US,1701668351
350,xai-xai,-25.0519,33.6442,299.7,56,20,1.52,MZ,1701668351
351,fortaleza,-3.7227,-38.5247,301.05,83,20,3.6,BR,1701668351
352,chuzhou,32.3219,118.2978,287.53,27,100,3.26,CN,1701668351
353,pak phanang,8.3511,100.202,302.16,80,100,3.56,TH,1701668351
354,bardai,11.65,7.2333,292.22,26,93,3.55,NG,1701668352
355,koryazhma,61.3143,47.1691,257.54,96,100,2.15,RU,1701668262
356,khorixas,-20.3667,14.9667,296.19,57,98,3.46,NA,1701668352
357,meiktila,20.8667,95.8667,301.06,56,80,4.18,MM,1701668353
358,kidal,18.4411,1.4078,292.5,13,17,4.19,ML,1701668353
359,yakeshi,49.2833,120.7333,262.77,93,90,3.05,CN,1701668353
360,dabakala,8.3667,-4.4333,296.16,75,9,1.78,CI,1701668353
361,egilsstadir,65.2653,-14.3948,267.1,93,100,2.06,IS,1701668354
362,brak,27.5496,14.2714,285.68,83,0,5.28,LY,1701668354
363,padang,-0.9492,100.3543,301.18,83,99,1.47,ID,1701668354
364,mount pearl,47.5166,-52.7813,272.67,83,75,1.03,CA,1701668168
365,geraldton,-28.7667,114.6,301.38,51,0,8.23,AU,1701668250
366,sao borja,-28.6606,-56.0044,294.23,95,100,6.5,BR,1701668196
367,morrope,-6.5417,-80.0111,293.21,81,91,4.88,PE,1701668355
368,olyokminsk,60.3736,120.4264,243.53,96,74,1.43,RU,1701668355
369,andergrove,-21.0833,149.1833,301.45,68,5,4.7,AU,1701668355
370,nadym,65.5333,72.5167,244.83,100,100,3.94,RU,1701668356
371,maragogi,-9.0122,-35.2225,298.29,87,18,3.48,BR,1701668356
372,kolwezi,-10.7148,25.4667,290.64,96,100,2.64,CD,1701668356
373,nogliki,51.8333,143.1667,270.01,73,100,4.92,RU,1701668356
374,pobugskoye,48.1658,30.5927,270.9,81,11,3.14,UA,1701668357
375,kasane,-17.8167,25.15,297.2,43,0,1.54,BW,1701668357
376,mezhdurechenskiy,59.6,65.9333,252.49,84,70,1.62,RU,1701668357
377,flying fish cove,-10.4217,105.6791,300.97,69,100,5.66,CX,1701668357
378,hadibu,12.65,54.0333,299.14,63,100,7.7,YE,1701668358
379,beli,7.8587,10.9719,296.26,42,65,0.53,NG,1701668358
380,ete,7.05,7.45,295.68,94,51,1.45,NG,1701668358
381,katsuura,35.1333,140.3,285.88,42,13,1.62,JP,1701668358
382,midvagur,62.0511,-7.1939,274.61,75,75,2.06,FO,1701668359
383,chita,52.0333,113.55,264.09,72,78,0.0,RU,1701668359
384,cullera,39.1667,-0.25,284.74,68,100,2.24,ES,1701668359
385,chokwe,-24.5333,32.9833,300.26,51,30,1.84,MZ,1701668359
386,taroudant,30.4703,-8.877,289.51,41,22,2.45,MA,1701668359
387,kargopol',61.5071,38.9456,261.32,97,100,1.44,RU,1701668360
388,namibe,-15.1961,12.1522,295.76,88,100,1.38,AO,1701668360
389,igarka,67.4667,86.5833,234.84,99,15,2.68,RU,1701668360
390,kurumkan,54.3,110.3,263.22,89,100,1.34,RU,1701668360
391,mazagao,-0.115,-51.2894,301.18,92,96,1.99,BR,1701668361
392,porto torres,40.835,8.3972,282.81,65,81,2.83,IT,1701668361
393,yelizovo,53.1873,158.3805,268.23,50,75,4.0,RU,1701668361
394,kigoma,-4.8769,29.6267,294.03,94,100,1.48,TZ,1701668361
395,calvinia,-31.4707,19.776,285.05,71,0,1.54,ZA,1701668361
396,codrington,-38.2667,141.9667,295.87,44,91,7.9,AU,1701668362
397,boende,-0.2167,20.8667,294.86,97,100,0.42,CD,1701668362
398,parabel',58.6978,81.4825,249.77,91,89,7.6,RU,1701668362
399,misratah,32.3754,15.0925,291.54,58,97,9.47,LY,1701668362
400,vorgashor,67.5833,63.95,245.33,94,80,2.37,RU,1701668363
401,polyarnyy,69.1989,33.4478,266.99,95,100,2.3,RU,1701668363
402,hirara,24.8,125.2833,294.07,100,75,4.12,JP,1701668363
403,barbacoas,1.6715,-78.1398,297.32,97,100,0.77,CO,1701668363
404,sinabang,2.4803,96.3801,302.2,71,99,1.2,ID,1701668364
405,pahrump,36.2083,-115.9839,283.88,51,70,1.28,US,1701668295
406,pervomayskiy,53.2485,40.2871,263.59,92,100,6.8,RU,1701668364
407,kamiiso,41.8167,140.65,280.36,57,75,3.6,JP,1701668364
408,tofol,5.3248,163.0078,299.03,94,100,4.12,FM,1701668365
409,talnakh,69.4865,88.3972,239.08,84,13,1.13,RU,1701668365
410,chipata,-13.6333,32.65,297.85,46,5,1.72,ZM,1701668365
411,sorong,-0.8833,131.25,302.48,72,54,3.35,ID,1701668278
412,sangkhla buri,15.1555,98.4536,305.55,47,93,1.09,TH,1701668365
413,ambon,-3.6954,128.1814,306.23,62,40,3.6,ID,1701668366
414,al mawsil al jadidah,36.3346,43.0978,287.74,48,40,1.11,IQ,1701668366
415,papao,-17.75,-149.55,301.97,82,95,11.71,PF,1701668367
416,yuzhno-kurilsk,44.0306,145.8556,277.25,68,52,5.27,RU,1701668367
417,yemel'yanovo,56.1681,92.6767,271.62,86,75,11.18,RU,1701668367
418,monrovia,6.3005,-10.7969,298.02,82,79,0.72,LR,1701668367
419,kataba,13.9833,44.3833,288.63,30,2,1.98,YE,1701668367
420,turkmenbasy,40.0222,52.9552,287.58,54,0,6.17,TM,1701668368
421,kerikeri,-35.2268,173.9474,295.32,90,100,0.45,NZ,1701668368
422,dawesville,30.9224,-84.0091,292.97,97,40,0.89,US,1701668368
423,atuntaqui,0.3333,-78.2167,285.23,89,75,1.9,EC,1701668368
424,rabaul,-4.1967,152.1721,300.59,80,100,2.1,PG,1701668369
425,tosontsengel,48.7567,98.2839,273.61,63,100,9.63,MN,1701668369
426,save,8.0425,2.486,296.54,93,9,1.11,BJ,1701668369
427,berezovyy,51.6667,135.7,263.58,84,100,0.74,RU,1701668370
428,ozd,48.2167,20.3,269.83,78,20,0.83,HU,1701668370
429,santa ines,-3.6667,-45.38,296.07,94,28,1.4,BR,1701668167
430,lalibela,12.0333,39.0333,291.39,39,47,0.43,ET,1701668370
431,albertina,-22.2008,-46.6158,293.34,69,24,1.12,BR,1701668370
432,ulsteinvik,62.3432,5.8487,273.57,76,42,1.34,NO,1701668371
433,mariehamn,60.0973,19.9348,271.38,86,75,3.09,AX,1701668371
434,mayisad,19.1667,-72.1333,292.86,95,4,1.51,HT,1701668371
435,harper,4.375,-7.7169,299.05,86,5,2.63,LR,1701668371
436,vila nova de foz coa,41.0637,-7.2039,281.22,94,89,3.05,PT,1701668371
437,bechar,31.6167,-2.2167,279.33,52,0,1.54,DZ,1701668372
438,newbridge,55.9333,-3.4,275.67,94,75,1.03,GB,1701668372
439,kaitong,44.8135,123.15,272.46,72,2,2.5,CN,1701668372
440,port-vila,-17.7338,168.3219,302.93,74,40,5.14,VU,1701668372
441,brisas de zicatela,15.8369,-97.0419,297.44,69,0,4.12,MX,1701668373
442,muynoq,43.7683,59.0214,284.22,54,84,5.14,UZ,1701668373
443,craigavon,54.4471,-6.387,277.94,80,100,5.94,GB,1701668373
444,new plymouth,-39.0667,174.0833,289.44,90,75,1.43,NZ,1701668373
445,salair,54.2312,85.7972,263.11,88,100,7.21,RU,1701668373
446,turuntayevo,52.2,107.6167,258.2,79,100,2.01,RU,1701668374
447,roma,43.2128,-75.4557,280.22,94,100,2.68,US,1701668374
448,mejit,10.2753,170.8646,300.47,76,94,9.42,MH,1701668374
449,haradok,55.4624,29.9816,263.21,100,95,1.49,BY,1701668374
450,trairi,-3.2778,-39.2689,298.8,81,42,2.75,BR,1701668375
451,pala,9.3642,14.9046,296.34,21,75,2.54,TD,1701668375
452,la'ie,21.6477,-157.9253,300.13,83,14,1.79,US,1701668375
453,cannonvale,-20.2833,148.7,301.81,65,8,3.09,AU,1701668375
454,santarem,-2.4431,-54.7083,301.22,74,75,2.06,BR,1701668376
455,carolina,18.3808,-65.9574,298.17,83,20,0.89,PR,1701668296
456,salinopolis,-0.6136,-47.3561,299.32,87,84,3.72,BR,1701668344
457,sakaiminato,35.55,133.2333,287.14,47,20,3.09,JP,1701668376
458,toamasina,-18.1667,49.3833,298.15,78,75,5.66,MG,1701668377
459,banikoara,11.2985,2.4386,293.76,15,62,1.74,BJ,1701668377
460,monchegorsk,67.9397,32.8739,261.54,98,100,0.46,RU,1701668377
461,ust'-ilimsk,58.0006,102.6619,270.06,91,100,3.58,RU,1701668377
462,kulhudhuffushi,6.6221,73.07,301.86,74,52,3.95,MV,1701668377
463,karystos,38.0133,24.4161,291.16,86,69,1.79,GR,1701668378
464,thinadhoo,0.5333,72.9333,301.24,76,78,2.69,MV,1701668378
465,hell-ville,-13.4,48.2667,302.08,76,40,1.03,MG,1701668378
466,severo-yeniseyskiy,60.3725,93.0408,252.91,97,100,4.92,RU,1701668378
467,san luis de la loma,17.2706,-100.8939,298.38,83,82,1.63,MX,1701668378
468,wheelersburg,38.7304,-82.8555,280.54,87,75,0.0,US,1701668379
469,bokani,9.4333,5.2,293.29,22,20,1.08,NG,1701668379
470,port hueneme,34.1478,-119.1951,291.05,73,0,2.57,US,1701668379
471,opuwo,-18.0607,13.84,295.2,69,91,1.62,NA,1701668379
472,pyt-yakh,60.7499,72.8582,244.07,92,7,2.31,RU,1701668379
473,praskoveya,44.7444,44.2031,284.49,56,99,1.64,RU,1701668380
474,warwick,41.7001,-71.4162,281.64,92,100,2.57,US,1701668187
475,maintirano,-18.0667,44.0167,302.77,60,63,1.32,MG,1701668380
476,naco,31.3347,-109.9483,281.2,30,3,1.45,MX,1701668380
477,westport,41.1415,-73.3579,281.66,91,20,0.0,US,1701668291
478,vila velha,-20.3297,-40.2925,299.12,88,40,3.58,BR,1701668381
479,capao da canoa,-29.7456,-50.0097,294.06,96,100,6.02,BR,1701668381
480,bada,51.392,109.8717,270.17,64,96,1.4,RU,1701668381
481,fiche,9.8,38.7333,286.84,39,42,2.13,ET,1701668381
482,lethbridge,49.7,-112.8186,277.42,56,0,10.29,CA,1701668314
483,guiyang,26.5833,106.7167,282.42,87,100,2.0,CN,1701668382
484,prince george,53.9166,-122.753,273.85,90,75,7.2,CA,1701668382
485,teguise,29.0605,-13.564,287.27,77,0,3.6,ES,1701668382
486,trincomalee,8.5711,81.2335,302.97,70,54,5.9,LK,1701668382
487,maceio,-9.6658,-35.7353,298.84,100,75,2.06,BR,1701668382
488,cheongju-si,36.6372,127.4897,281.13,39,0,1.03,KR,1701668383
489,yeonggwang,35.275,126.5094,281.96,58,64,2.11,KR,1701668383
490,castro,-24.7911,-50.0119,291.45,98,91,0.91,BR,1701668383
491,hagere maryam,5.6333,38.2333,292.37,43,9,3.65,ET,1701668131
492,bamboo flat,11.7,92.7167,302.2,84,75,3.6,IN,1701668383
493,dumas,35.8656,-101.9732,271.78,54,0,3.09,US,1701668344
494,puerto armuelles,8.2833,-82.8667,299.87,68,99,1.34,PA,1701668384
495,longjiang,47.3303,123.1836,272.49,64,1,1.74,CN,1701668384
496,targuist,34.9377,-4.3186,281.32,40,80,2.16,MA,1701668384
497,bambanglipuro,-7.95,110.2833,301.52,74,99,3.69,ID,1701668384
498,shakargarh,32.2623,75.1668,294.87,33,61,0.39,PK,1701668385
499,tabou,4.423,-7.3528,298.93,87,0,2.44,CI,1701668385
500,ed damer,17.5928,33.9592,298.8,56,5,3.56,SD,1701668385
501,korsakov,46.6328,142.7813,277.06,75,79,8.57,RU,1701668385
502,faya-largeau,17.9257,19.1043,293.99,14,1,5.63,TD,1701668385
503,turiacu,-1.6633,-45.3717,297.2,94,75,1.52,BR,1701668332
504,taulaga,-11.0553,-171.0883,301.62,76,37,8.18,AS,1701668386
505,tulun,54.5611,100.5792,272.07,95,100,3.41,RU,1701668386
506,arambol,15.6868,73.7045,302.09,44,95,0.9,IN,1701668386
507,carrizo springs,28.5219,-99.8606,283.49,81,0,0.0,US,1701668386
508,kismayo,-0.3582,42.5454,302.51,70,59,6.5,SO,1701668386
509,cruz del eje,-30.7264,-64.8039,285.98,50,100,4.81,AR,1701668387
510,sompeta,18.9333,84.6,296.26,80,100,2.96,IN,1701668387
511,rikaze,29.25,88.8833,278.27,14,35,1.73,CN,1701668387
512,tsiombe,-25.3,45.4833,300.71,45,1,5.37,MG,1701668387
513,timmins,48.4669,-81.3331,261.05,85,75,2.57,CA,1701668195
514,thames,-37.1333,175.5333,292.83,95,89,0.29,NZ,1701668388
515,port hedland,-20.3167,118.5667,306.18,55,4,6.69,AU,1701668388
516,bocaiuva,-17.1078,-43.815,293.35,87,67,0.6,BR,1701668298
517,cartagena del chaira,1.3349,-74.8429,295.49,85,78,1.12,CO,1701668388
518,veraval,20.9,70.3667,301.72,57,9,5.43,IN,1701668388
519,manay,7.215,126.5397,302.81,69,84,3.54,PH,1701668389
520,tutoia,-2.7619,-42.2744,299.56,79,96,3.75,BR,1701668228
521,australind,-33.2667,115.7167,295.76,54,100,5.86,AU,1701668389
522,xunchang,28.4543,104.715,287.23,62,100,0.48,CN,1701668389
523,malyn,50.7723,29.2383,265.66,96,56,4.11,UA,1701668389
524,shevchenko,48.5,35.0,272.35,66,96,4.63,UA,1701668390
525,kawambwa,-9.7915,29.0791,292.86,87,87,1.23,ZM,1701668390
526,okha,53.5739,142.9478,262.6,93,100,3.82,RU,1701668390
527,funafuti,-8.5243,179.1942,305.15,74,75,3.09,TV,1701668390
528,nasiriyah,31.0521,46.261,291.76,32,0,2.7,IQ,1701668391
529,igrim,63.1906,64.4162,249.01,95,97,1.59,RU,1701668391
530,amahai,-3.3333,128.9167,303.09,69,27,3.19,ID,1701668391
531,nichinan,31.6,131.3667,287.97,54,87,1.9,JP,1701668391
532,dange,12.8513,5.3471,293.22,23,38,3.68,NG,1701668391
533,buritizeiro,-17.3511,-44.9622,293.6,93,18,0.22,BR,1701668392
534,tabora,-5.0167,32.8,295.36,79,91,0.84,TZ,1701668392
535,shchyolkino,45.4291,35.8223,280.68,93,100,7.59,UA,1701668392
536,rawai,7.7797,98.3253,303.21,78,82,5.66,TH,1701668392
537,sangaria,29.8,74.45,296.05,34,0,1.03,IN,1701668392
